[{"id":136,"nom":"RUE CHAMBORD","adresse":"RUE CHAMBORD","commune":"VILLENEUVE D'ASCQ","type":"SANS TPE","latitude":50.62972,"longitude":3.133873,"geo":[50.62972,3.133873]},{"id":270,"nom":"PAV\u00c9 DE LILLE","adresse":"Rue Jean Bart","commune":"WASQUEHAL","type":"AVEC TPE","latitude":50.664211,"longitude":3.130098,"geo":[50.664211,3.130098]},{"id":35,"nom":"LECLERC","adresse":"24 PLACE MARECHAL LECLERC","commune":"LILLE","type":"AVEC TPE","latitude":50.62899,"longitude":3.043307,"geo":[50.62899,3.043307]},{"id":44,"nom":"GAMBETTA UTRECHT","adresse":"199 RUE LEON GAMBETTA","commune":"LILLE","type":"AVEC TPE","latitude":50.629063,"longitude":3.053711,"geo":[50.629063,3.053711]},{"id":11,"nom":"NOUVEAU SIECLE","adresse":"10 RUE DE PAS","commune":"LILLE","type":"AVEC TPE","latitude":50.63734,"longitude":3.060977,"geo":[50.63734,3.060977]},{"id":13,"nom":"QUAI DU WAULT","adresse":"17 SQUARE DUTILLEUL","commune":"LILLE","type":"AVEC TPE","latitude":50.63671,"longitude":3.054773,"geo":[50.63671,3.054773]},{"id":30,"nom":"RUE DE GAND","adresse":"8 PLACE DE GAND","commune":"LILLE","type":"AVEC TPE","latitude":50.64297,"longitude":3.067375,"geo":[50.64297,3.067375]},{"id":41,"nom":"BUISSON","adresse":"681 AVENUE DE LA REPUBLIQUE","commune":"LILLE","type":"AVEC TPE","latitude":50.656487,"longitude":3.088004,"geo":[50.656487,3.088004]},{"id":55,"nom":"PORTE D'ARRAS","adresse":"3 PLACE JACQUES FEBVRIER","commune":"LILLE","type":"AVEC TPE","latitude":50.617847,"longitude":3.061758,"geo":[50.617847,3.061758]},{"id":81,"nom":"GUINGUETTE","adresse":"RUE JACQUARD","commune":"LILLE HELLEMMES","type":"AVEC TPE","latitude":50.63529,"longitude":3.115088,"geo":[50.63529,3.115088]},{"id":83,"nom":"EURATECHNOLOGIES","adresse":"AVENUE DE BRETAGNE","commune":"LILLE","type":"AVEC TPE","latitude":50.63378,"longitude":3.02059,"geo":[50.63378,3.02059]},{"id":85,"nom":"CHANZY","adresse":"58 RUE CHANZY","commune":"LILLE HELLEMMES","type":"AVEC TPE","latitude":50.62504,"longitude":3.1008,"geo":[50.62504,3.1008]},{"id":90,"nom":"LOUVIERE","adresse":"1 RUE DU DIEU DE MARCQ","commune":"LILLE","type":"AVEC TPE","latitude":50.64569,"longitude":3.0858226,"geo":[50.64569,3.0858226]},{"id":96,"nom":"ROMARIN","adresse":"ALLEE VICTOR BASCH","commune":"LA MADELEINE","type":"AVEC TPE","latitude":50.64543,"longitude":3.075116,"geo":[50.64543,3.075116]},{"id":97,"nom":"LA MADELEINE GARE","adresse":"250 RUE GENERAL DE GAULLE","commune":"LA MADELEINE","type":"AVEC TPE","latitude":50.65937,"longitude":3.074057,"geo":[50.65937,3.074057]},{"id":100,"nom":"SAINT MAUR","adresse":"260 AVENUE DE LA REPUBLIQUE","commune":"LA MADELEINE","type":"AVEC TPE","latitude":50.651638,"longitude":3.081625,"geo":[50.651638,3.081625]},{"id":102,"nom":"MAIRIE DE MONS","adresse":"AVENUE ROBERT SCHUMAN","commune":"MONS EN BAROEUL","type":"AVEC TPE","latitude":50.64218,"longitude":3.109699,"geo":[50.64218,3.109699]},{"id":110,"nom":"RUE BONTE-POLLET","adresse":"11 RUE BONTE POLLET","commune":"LILLE","type":"AVEC TPE","latitude":50.62487,"longitude":3.034234,"geo":[50.62487,3.034234]},{"id":144,"nom":"ANNAPPES REPUBLIQUE","adresse":"FACE AU 1 BIS RUE DE LA STATION","commune":"VILLENEUVE D'ASCQ","type":"AVEC TPE","latitude":50.6258,"longitude":3.14862,"geo":[50.6258,3.14862]},{"id":147,"nom":"FAUBOURG D'ARRAS","adresse":"2 RUE MARCEL H\u00c9NAUX","commune":"LILLE","type":"AVEC TPE","latitude":50.614052,"longitude":3.062195,"geo":[50.614052,3.062195]},{"id":153,"nom":"POMPIDOU","adresse":"FACE AU 102 ALLEE DU RIEZ","commune":"LA MADELEINE","type":"AVEC TPE","latitude":50.65547,"longitude":3.064989,"geo":[50.65547,3.064989]},{"id":156,"nom":"ST ANDRE MAIRIE","adresse":"FACE AU 92 RUE DU GENERAL LECLERC","commune":"SAINT ANDRE LEZ LILLE","type":"AVEC TPE","latitude":50.661602,"longitude":3.050322,"geo":[50.661602,3.050322]},{"id":160,"nom":"PARVIS ROTTERDAM","adresse":"Parvis Rotterdam","commune":"LILLE","type":"AVEC TPE","latitude":50.637709,"longitude":3.077478,"geo":[50.637709,3.077478]},{"id":165,"nom":"JEAN SANS PEUR","adresse":"68 RUE JEAN SANS PEUR","commune":"LILLE","type":"AVEC TPE","latitude":50.632367,"longitude":3.05816,"geo":[50.632367,3.05816]},{"id":172,"nom":"PLACE DE LA GARONNE","adresse":"Rue de la Seine","commune":"LILLE","type":"AVEC TPE","latitude":50.612635,"longitude":3.059261,"geo":[50.612635,3.059261]},{"id":189,"nom":"HAUT DE MONS","adresse":"184 rue du g\u00e9n\u00e9ral de Gaulle","commune":"MONS EN BAROEUL","type":"SANS TPE","latitude":50.646418,"longitude":3.106625,"geo":[50.646418,3.106625]},{"id":193,"nom":"BEL AIR","adresse":"115 Rue de Lambersart","commune":"SAINT-ANDR\u00c9-LEZ-LILLE","type":"AVEC TPE","latitude":50.658146,"longitude":3.042003,"geo":[50.658146,3.042003]},{"id":202,"nom":"PARC BARBIEUX","adresse":"AVENUE JEAN JAURES","commune":"ROUBAIX","type":"AVEC TPE","latitude":50.677914,"longitude":3.162353,"geo":[50.677914,3.162353]},{"id":207,"nom":"EUROTELEPORT","adresse":"78-84, BOULEVARD DU G\u00c9N\u00c9RAL LECLERC","commune":"ROUBAIX","type":"AVEC TPE","latitude":50.69138,"longitude":3.17966,"geo":[50.69138,3.17966]},{"id":239,"nom":"BVRD DE L EGALITE","adresse":"SECTEUR BVLD EGALITE","commune":"TOURCOING","type":"AVEC TPE","latitude":50.730289,"longitude":3.167723,"geo":[50.730289,3.167723]},{"id":242,"nom":"TOURCOING GARE","adresse":"PLACE PIERRE SEMARD","commune":"TOURCOING","type":"AVEC TPE","latitude":50.716843,"longitude":3.167834,"geo":[50.716843,3.167834]},{"id":245,"nom":"JARDIN BOTANIQUE","adresse":"126, RUE VERTE","commune":"TOURCOING","type":"AVEC TPE","latitude":50.724581,"longitude":3.166122,"geo":[50.724581,3.166122]},{"id":266,"nom":"MAIRIE DE QUARTIER OUEST","adresse":"205-189 rue de l'Epeule","commune":"ROUBAIX","type":"AVEC TPE","latitude":50.6875,"longitude":3.1585592,"geo":[50.6875,3.1585592]},{"id":302,"nom":"FACHES THUMESNIL MAIRIE","adresse":"Rue Roger Salengro","commune":"FACHES THUMESNIL","type":"AVEC TPE","latitude":50.60301,"longitude":3.06925,"geo":[50.60301,3.06925]},{"id":303,"nom":"R\u00c9SISTANCE","adresse":"Rue Carnot","commune":"FACHES THUMESNIL","type":"AVEC TPE","latitude":50.60709,"longitude":3.06558,"geo":[50.60709,3.06558]},{"id":126,"nom":"LE POLYEDRE","adresse":"FACE AU 38, AVENUE RHIN ET DANUBE","commune":"MONS EN BAROEUL","type":"AVEC TPE","latitude":50.64057,"longitude":3.115571,"geo":[50.64057,3.115571]},{"id":87,"nom":"JULES GUESDE","adresse":"RUE ST ELOI","commune":"LILLE HELLEMMES","type":"AVEC TPE","latitude":50.632393,"longitude":3.110669,"geo":[50.632393,3.110669]},{"id":268,"nom":"BLANCHEMAILLE","adresse":"59-55 RUE DE BLANCHEMAILLE","commune":"ROUBAIX","type":"AVEC TPE","latitude":50.6967934,"longitude":3.1684926,"geo":[50.6967934,3.1684926]},{"id":269,"nom":"DELORY BARBIEUX","adresse":"12 Avenue Gustave Delory","commune":"ROUBAIX","type":"AVEC TPE","latitude":50.676944,"longitude":3.167306,"geo":[50.676944,3.167306]},{"id":271,"nom":"WASQUEHAL HOTEL DE VILLE","adresse":"Wasquehal Hotel de ville","commune":"WASQUEHAL","type":"AVEC TPE","latitude":50.669867,"longitude":3.131048,"geo":[50.669867,3.131048]},{"id":6,"nom":"REPUBLIQUE BEAUX ARTS","adresse":"2 RUE INKERMAN","commune":"LILLE","type":"AVEC TPE","latitude":50.630943,"longitude":3.060299,"geo":[50.630943,3.060299]},{"id":51,"nom":"JB LEBAS","adresse":"2 RUE CAMBRAI","commune":"LILLE","type":"AVEC TPE","latitude":50.62482,"longitude":3.068689,"geo":[50.62482,3.068689]},{"id":2,"nom":"UNIVERSITE CATHOLIQUE","adresse":"RUE DU PORT BD VAUBAN","commune":"LILLE","type":"AVEC TPE","latitude":50.632233,"longitude":3.046134,"geo":[50.632233,3.046134]},{"id":4,"nom":"MAISON FOLIE WAZEMMES","adresse":"28 RUE DE L'HOPITAL SAINT ROCH","commune":"LILLE","type":"AVEC TPE","latitude":50.624695,"longitude":3.048961,"geo":[50.624695,3.048961]},{"id":9,"nom":"RUE DE TOUL","adresse":"18 RUE DE TOUL","commune":"LILLE","type":"AVEC TPE","latitude":50.63393,"longitude":3.044986,"geo":[50.63393,3.044986]},{"id":15,"nom":"ESPLANADE","adresse":"PONT DU PETIT PARADIS","commune":"LILLE","type":"AVEC TPE","latitude":50.6449,"longitude":3.050645,"geo":[50.6449,3.050645]},{"id":32,"nom":"PLACE AUX BLEUETS","adresse":"15 RUE DE COURTRAI","commune":"LILLE","type":"AVEC TPE","latitude":50.64142,"longitude":3.067873,"geo":[50.64142,3.067873]},{"id":45,"nom":"BRULE MAISON","adresse":"51 RUE DES POSTES","commune":"LILLE","type":"AVEC TPE","latitude":50.62633,"longitude":3.05659,"geo":[50.62633,3.05659]},{"id":56,"nom":"BD VICTOR HUGO","adresse":"214 BOULEVARD VICTOR HUGO","commune":"LILLE","type":"AVEC TPE","latitude":50.620304,"longitude":3.055471,"geo":[50.620304,3.055471]},{"id":57,"nom":"BARTHELEMY DELESPAUL","adresse":"FACE AU 52 RUE BARTHELEMY DELESPAUL","commune":"LILLE","type":"AVEC TPE","latitude":50.62418,"longitude":3.058902,"geo":[50.62418,3.058902]},{"id":70,"nom":"CITE ADMINISTRATIVE","adresse":"51 RUE DE TOURNAI","commune":"LILLE","type":"AVEC TPE","latitude":50.63424,"longitude":3.073991,"geo":[50.63424,3.073991]},{"id":76,"nom":"FIVES","adresse":"123 RUE PIERRE LEGRAND","commune":"LILLE","type":"AVEC TPE","latitude":50.632996,"longitude":3.089651,"geo":[50.632996,3.089651]},{"id":78,"nom":"HOTEL DE POLICE","adresse":"RUE DU FAUBOURG DES POSTES","commune":"LILLE","type":"AVEC TPE","latitude":50.615536,"longitude":3.048518,"geo":[50.615536,3.048518]},{"id":79,"nom":"CIMETIERE DU SUD","adresse":"65 RUE DU FAUBOURG DES POSTES","commune":"LILLE","type":"AVEC TPE","latitude":50.61295,"longitude":3.047268,"geo":[50.61295,3.047268]},{"id":86,"nom":"ROGER SALENGRO","adresse":"68 RUE ROGER SALENGRO","commune":"LILLE HELLEMMES","type":"AVEC TPE","latitude":50.62903,"longitude":3.10295,"geo":[50.62903,3.10295]},{"id":91,"nom":"SQUARE DES MERES","adresse":"95 RUE DE LANNOY","commune":"LILLE","type":"AVEC TPE","latitude":50.63417,"longitude":3.095958,"geo":[50.63417,3.095958]},{"id":93,"nom":"STADE BALLET","adresse":"85 RUE DU LONG POT","commune":"LILLE","type":"AVEC TPE","latitude":50.628918,"longitude":3.088147,"geo":[50.628918,3.088147]},{"id":113,"nom":"AVENUE DE MORMAL","adresse":"16, RUE DU BUISSON","commune":"LILLE","type":"AVEC TPE","latitude":50.651337,"longitude":3.08945,"geo":[50.651337,3.08945]},{"id":122,"nom":"PISCINE DE MARCQ","adresse":"298-300 AVENUE DE LATTRE DE TASSIGNY","commune":"MARCQ EN BAROEUL","type":"AVEC TPE","latitude":50.666033,"longitude":3.087591,"geo":[50.666033,3.087591]},{"id":139,"nom":"RUE DE LILLE","adresse":"RUE DE LILLE","commune":"VILLENEUVE D'ASCQ","type":"AVEC TPE","latitude":50.62577,"longitude":3.144714,"geo":[50.62577,3.144714]},{"id":149,"nom":"JEAN JAURES","adresse":"FACE AU 780 AVENUE JEAN JAURES","commune":"RONCHIN","type":"AVEC TPE","latitude":50.609592,"longitude":3.075483,"geo":[50.609592,3.075483]},{"id":150,"nom":"RONCHIN MAIRIE","adresse":"SUR LE PARVIS DE LA MAIRIE","commune":"RONCHIN","type":"AVEC TPE","latitude":50.60548,"longitude":3.077622,"geo":[50.60548,3.077622]},{"id":178,"nom":"LA FILEUSE","adresse":"81 RUE DU MARECHAL FOCH","commune":"LOOS","type":"AVEC TPE","latitude":50.615246,"longitude":3.018435,"geo":[50.615246,3.018435]},{"id":186,"nom":"MARCQ MAIRIE","adresse":"29-1 Av du Mal de LATTRE de TASSIGNY","commune":"MARCQ EN BAROEUL","type":"SANS TPE","latitude":50.672415,"longitude":3.0924237,"geo":[50.672415,3.0924237]},{"id":188,"nom":"LOUIS BRAILLE","adresse":"17 rue Louis Braille","commune":"MONS EN BAROEUL","type":"AVEC TPE","latitude":50.637103,"longitude":3.097538,"geo":[50.637103,3.097538]},{"id":197,"nom":"NOTEBART","adresse":"Avenue Arthur Notebart","commune":"LILLE","type":"AVEC TPE","latitude":50.630834,"longitude":3.013247,"geo":[50.630834,3.013247]},{"id":200,"nom":"MAIRIE DE CROIX","adresse":"FACE AU 232, RUE JEAN JAUR\u00c8S","commune":"CROIX","type":"AVEC TPE","latitude":50.679123,"longitude":3.155906,"geo":[50.679123,3.155906]},{"id":217,"nom":"HOPITAL VICTOR PROVO","adresse":"BOULEVARD DE LYON","commune":"ROUBAIX","type":"AVEC TPE","latitude":50.67869,"longitude":3.172558,"geo":[50.67869,3.172558]},{"id":224,"nom":"CENTRE NAUTIQUE","adresse":"26, RUE DE L'EPEULE","commune":"ROUBAIX","type":"AVEC TPE","latitude":50.691406,"longitude":3.162704,"geo":[50.691406,3.162704]},{"id":225,"nom":"EPEULE MONTESQUIEU","adresse":"RUE INKERMAN","commune":"ROUBAIX","type":"AVEC TPE","latitude":50.683987,"longitude":3.16327,"geo":[50.683987,3.16327]},{"id":238,"nom":"THEATRE TOURCOING","adresse":"1, RUE DE L'ALMA","commune":"TOURCOING","type":"AVEC TPE","latitude":50.72075,"longitude":3.152659,"geo":[50.72075,3.152659]},{"id":248,"nom":"RUE SAINT BLAISE","adresse":"85, RUE DE GAND","commune":"TOURCOING","type":"AVEC TPE","latitude":50.728798,"longitude":3.158835,"geo":[50.728798,3.158835]},{"id":257,"nom":"CHARLES WATTINNE","adresse":"PONT HYDRAULIQUE","commune":"TOURCOING","type":"AVEC TPE","latitude":50.71473,"longitude":3.157369,"geo":[50.71473,3.157369]},{"id":265,"nom":"CROIX CENTRE","adresse":"3 PLACE DE LA REPUBLIQUE","commune":"CROIX","type":"AVEC TPE","latitude":50.67441,"longitude":3.14721,"geo":[50.67441,3.14721]},{"id":308,"nom":"SADI CARNOT","adresse":"178-180 rue Sadi Carnot","commune":"HAUBOURDIN","type":"AVEC TPE","latitude":50.611307,"longitude":2.994654,"geo":[50.611307,2.994654]},{"id":106,"nom":"CONCORDE","adresse":"27 BOULEVARD ALPHONSE GAYET","commune":"MONS EN BAROEUL","type":"AVEC TPE","latitude":50.638123,"longitude":3.112704,"geo":[50.638123,3.112704]},{"id":112,"nom":"SQUARE CHARLES DE GAULLE","adresse":"4, RUE FERDINAND BUISSON","commune":"HELLEMMES","type":"AVEC TPE","latitude":50.626846,"longitude":3.115101,"geo":[50.626846,3.115101]},{"id":215,"nom":"TROIS PONTS","adresse":"186, AVENUE JULIEN LAGACHE","commune":"ROUBAIX","type":"AVEC TPE","latitude":50.684593,"longitude":3.200799,"geo":[50.684593,3.200799]},{"id":233,"nom":"RUE DE TOURCOING","adresse":"RUE DE TOURCOING (SUR LA PARKING GRDF)","commune":"ROUBAIX","type":"AVEC TPE","latitude":50.702026,"longitude":3.172654,"geo":[50.702026,3.172654]},{"id":313,"nom":"PONT DE L'ABBAYE","adresse":"1 Rue de Lille","commune":"MARQUETTE","type":"AVEC TPE","latitude":50.666236,"longitude":3.06415,"geo":[50.666236,3.06415]},{"id":50,"nom":"RUE D'ARRAS","adresse":"4 RUE WAZEMMES","commune":"LILLE","type":"AVEC TPE","latitude":50.62224,"longitude":3.067004,"geo":[50.62224,3.067004]},{"id":22,"nom":"LOUISE DE BETTIGNIES","adresse":"PLACE LOUISE DE BETTIGNIES","commune":"LILLE","type":"AVEC TPE","latitude":50.64144,"longitude":3.064974,"geo":[50.64144,3.064974]},{"id":25,"nom":"GARE LILLE FLANDRES","adresse":"PLACE DE LA GARE","commune":"LILLE","type":"AVEC TPE","latitude":50.636399,"longitude":3.069354,"geo":[50.636399,3.069354]},{"id":37,"nom":"FULTON","adresse":"14 RUE DU BAZINGHIEN","commune":"LILLE","type":"AVEC TPE","latitude":50.62337,"longitude":3.037553,"geo":[50.62337,3.037553]},{"id":40,"nom":"METRO GAMBETTA","adresse":"41 RUE DU MARCHE","commune":"LILLE","type":"AVEC TPE","latitude":50.62614,"longitude":3.051729,"geo":[50.62614,3.051729]},{"id":49,"nom":"PLACE DELIOT","adresse":"1 PLACE DELIOT","commune":"LILLE","type":"AVEC TPE","latitude":50.61957,"longitude":3.068387,"geo":[50.61957,3.068387]},{"id":63,"nom":"HOTEL DE REGION","adresse":"BOULEVARD DU PRESIDENT HOOVER","commune":"LILLE","type":"AVEC TPE","latitude":50.629738,"longitude":3.078224,"geo":[50.629738,3.078224]},{"id":73,"nom":"ST MAURICE PELLEVOISIN","adresse":"211 RUE DU FAUBOURG DE ROUBAIX","commune":"LILLE","type":"AVEC TPE","latitude":50.642315,"longitude":3.087979,"geo":[50.642315,3.087979]},{"id":84,"nom":"MAIRIE D'HELLEMMES","adresse":"165 RUE ROGER SALENGRO","commune":"LILLE HELLEMMES","type":"AVEC TPE","latitude":50.627243,"longitude":3.109266,"geo":[50.627243,3.109266]},{"id":119,"nom":"LOMME-LAMBERSART","adresse":"390, AVENUE DE DUNKERQUE","commune":"LAMBERSART","type":"AVEC TPE","latitude":50.640957,"longitude":3.018803,"geo":[50.640957,3.018803]},{"id":125,"nom":"FORT DE MONS","adresse":"12, RUE DE NORMANDIE","commune":"MONS EN BAROEUL","type":"AVEC TPE","latitude":50.643883,"longitude":3.118579,"geo":[50.643883,3.118579]},{"id":130,"nom":"PONT DE BOIS","adresse":"RUE BAUDOUIN IX - M\u00c9TRO PONT DE BOIS","commune":"VILLENEUVE D'ASCQ","type":"AVEC TPE","latitude":50.62435,"longitude":3.1283,"geo":[50.62435,3.1283]},{"id":154,"nom":"CHAUFFERIE","adresse":"FACE AU 125 RUE ROGER SALENGRO","commune":"LA MADELEINE","type":"AVEC TPE","latitude":50.65532,"longitude":3.060615,"geo":[50.65532,3.060615]},{"id":159,"nom":"EURALILLE","adresse":"66-188 ALL\ufffdE DE LI\ufffdGE","commune":"LILLE","type":"AVEC TPE","latitude":50.637726,"longitude":3.071892,"geo":[50.637726,3.071892]},{"id":179,"nom":"BOURSE DU TRAVAIL","adresse":"Boulevard de l'usine","commune":"LILLE","type":"AVEC TPE","latitude":50.626063,"longitude":3.090931,"geo":[50.626063,3.090931]},{"id":185,"nom":"SAINTE H\u00c9L\u00c8NE","adresse":"52 Rue sainte-h\u00e9l\u00e9ne","commune":"SAINT ANDRE LEZ LILLE","type":"AVEC TPE","latitude":50.65722,"longitude":3.056147,"geo":[50.65722,3.056147]},{"id":223,"nom":"PLACE TRICHON","adresse":"3, PLACE DU TRICHON","commune":"ROUBAIX","type":"AVEC TPE","latitude":50.6903353,"longitude":3.1690075,"geo":[50.6903353,3.1690075]},{"id":253,"nom":"AVENUE MILLET","adresse":"SECTEUR RUE CONDORCET","commune":"TOURCOING","type":"SANS TPE","latitude":50.72498,"longitude":3.150884,"geo":[50.72498,3.150884]},{"id":254,"nom":"SEBASTOPOL","adresse":"FACE AU 69 RUE CARNOT","commune":"TOURCOING","type":"SANS TPE","latitude":50.71732,"longitude":3.162455,"geo":[50.71732,3.162455]},{"id":307,"nom":"4 VENTS","adresse":"rue chanzy","commune":"LEZENNES","type":"AVEC TPE","latitude":50.61245,"longitude":3.12268,"geo":[50.61245,3.12268]},{"id":231,"nom":"MOTTE BOSSUT","adresse":"ROND POINT DE L'EUROPE","commune":"ROUBAIX","type":"AVEC TPE","latitude":50.689762,"longitude":3.177179,"geo":[50.689762,3.177179]},{"id":92,"nom":"RUE DE LA GAITE","adresse":"9 RUE MARCEAU","commune":"LILLE","type":"AVEC TPE","latitude":50.63665,"longitude":3.091106,"geo":[50.63665,3.091106]},{"id":274,"nom":"CALMETTE","adresse":"Angle du docteur Calmette et de l'avenue Laennec","commune":"HEM","type":"AVEC TPE","latitude":50.667847,"longitude":3.192974,"geo":[50.667847,3.192974]},{"id":275,"nom":"LA\u00cbNNEC","adresse":"4 square Berthelot","commune":"HEM","type":"AVEC TPE","latitude":50.665946,"longitude":3.198101,"geo":[50.665946,3.198101]},{"id":24,"nom":"FLANDRES EURALILLE","adresse":"PLACE DES BUISSES","commune":"LILLE","type":"AVEC TPE","latitude":50.637078,"longitude":3.070774,"geo":[50.637078,3.070774]},{"id":19,"nom":"RUE ROYALE","adresse":"40 RUE ROYALE","commune":"LILLE","type":"AVEC TPE","latitude":50.64031,"longitude":3.05774,"geo":[50.64031,3.05774]},{"id":46,"nom":"ARTOIS","adresse":"12 RUE D'ARTOIS","commune":"LILLE","type":"AVEC TPE","latitude":50.62629,"longitude":3.061198,"geo":[50.62629,3.061198]},{"id":47,"nom":"BOULEVARD LOUIS XIV","adresse":"1 BOULEVARD JEAN BAPTISTE LEBAS","commune":"LILLE","type":"AVEC TPE","latitude":50.62824,"longitude":3.069233,"geo":[50.62824,3.069233]},{"id":53,"nom":"PORTE DES POSTES","adresse":"1 PLACE BARTHELEMY DOREZ","commune":"LILLE","type":"AVEC TPE","latitude":50.61856,"longitude":3.049251,"geo":[50.61856,3.049251]},{"id":66,"nom":"DELESALLE MEDIATHEQUE","adresse":"35 RUE EDOUARD DELESALLE","commune":"LILLE","type":"AVEC TPE","latitude":50.63237,"longitude":3.066273,"geo":[50.63237,3.066273]},{"id":67,"nom":"MONTEBELLO","adresse":"122 BOULEVARD MONTEBELLO","commune":"LILLE","type":"AVEC TPE","latitude":50.621952,"longitude":3.04534,"geo":[50.621952,3.04534]},{"id":68,"nom":"NATIONALE RUE DU PORT","adresse":"244 - 254 RUE NATIONALE","commune":"LILLE","type":"AVEC TPE","latitude":50.630836,"longitude":3.047778,"geo":[50.630836,3.047778]},{"id":72,"nom":"CANTELEU","adresse":"237 AVENUE DE DUNKERQUE","commune":"LILLE","type":"AVEC TPE","latitude":50.637302,"longitude":3.024314,"geo":[50.637302,3.024314]},{"id":74,"nom":"FAUBOURG DE ROUBAIX","adresse":"112 RUE DU FAUBOURG DE ROUBAIX","commune":"LILLE","type":"AVEC TPE","latitude":50.641238,"longitude":3.083175,"geo":[50.641238,3.083175]},{"id":103,"nom":"LACORDAIRE","adresse":"44 RUE LACORDAIRE","commune":"MONS EN BAROEUL","type":"AVEC TPE","latitude":50.639828,"longitude":3.106677,"geo":[50.639828,3.106677]},{"id":131,"nom":"V.ASCQ HOTEL DE VILLE","adresse":"RUE VERMEER","commune":"VILLENEUVE D'ASCQ","type":"AVEC TPE","latitude":50.619602,"longitude":3.13197,"geo":[50.619602,3.13197]},{"id":135,"nom":"FLERS MASQUELIER","adresse":"97, RUE JULES GUESDE","commune":"VILLENEUVE D'ASCQ","type":"AVEC TPE","latitude":50.63745,"longitude":3.123145,"geo":[50.63745,3.123145]},{"id":148,"nom":"P.I. DE DOUAI","adresse":"RUE DU FAUBOURG DE DOUAI SOUS LE PONT","commune":"LILLE","type":"AVEC TPE","latitude":50.612194,"longitude":3.074952,"geo":[50.612194,3.074952]},{"id":183,"nom":"PLACE DE LA BOUCHERIE","adresse":"Place de la Boucherie","commune":"LA MADELEINE","type":"AVEC TPE","latitude":50.658048,"longitude":3.063774,"geo":[50.658048,3.063774]},{"id":196,"nom":"ANATOLE FRANCE","adresse":"rue Ancienne Balaterie","commune":"LOMME","type":"AVEC TPE","latitude":50.636003,"longitude":3.009396,"geo":[50.636003,3.009396]},{"id":198,"nom":"LOOS CLEMENCEAU","adresse":"26 rue Georges Cl\u00e9menceau","commune":"LOOS","type":"AVEC TPE","latitude":50.614392,"longitude":3.010842,"geo":[50.614392,3.010842]},{"id":199,"nom":"GEORGES POTI\u00c9","adresse":"83 Rue Georges Potie","commune":"LOOS","type":"AVEC TPE","latitude":50.612921,"longitude":3.003634,"geo":[50.612921,3.003634]},{"id":206,"nom":"ALFRED MONGY","adresse":"15, BOULEVARD DU G\u00c9N\u00c9RAL DE GAULLE","commune":"ROUBAIX","type":"SANS TPE","latitude":50.688015,"longitude":3.174815,"geo":[50.688015,3.174815]},{"id":208,"nom":"DE FOURMIES","adresse":"107, BOULEVARD DE FOURMIES","commune":"ROUBAIX","type":"AVEC TPE","latitude":50.67544,"longitude":3.181998,"geo":[50.67544,3.181998]},{"id":209,"nom":"USINE","adresse":"AVENUE ALFRED MOTTE","commune":"ROUBAIX","type":"AVEC TPE","latitude":50.674995,"longitude":3.195737,"geo":[50.674995,3.195737]},{"id":210,"nom":"LINNE","adresse":"192, AVENUE DE LINN\u00c9","commune":"ROUBAIX","type":"AVEC TPE","latitude":50.676884,"longitude":3.187817,"geo":[50.676884,3.187817]},{"id":211,"nom":"GUSTAVE DELORY","adresse":"48, AVENUE GUSTAVE DELORY","commune":"ROUBAIX","type":"AVEC TPE","latitude":50.674164,"longitude":3.174519,"geo":[50.674164,3.174519]},{"id":212,"nom":"DANIELLE LESAFFRE","adresse":"42, RUE DUPUY DE LOM\u00c9","commune":"ROUBAIX","type":"SANS TPE","latitude":50.682053,"longitude":3.182205,"geo":[50.682053,3.182205]},{"id":214,"nom":"SAINT JEAN-BAPTISTE","adresse":"1, RUE LESUEUR","commune":"ROUBAIX","type":"AVEC TPE","latitude":50.6795,"longitude":3.179257,"geo":[50.6795,3.179257]},{"id":220,"nom":"MUSEE ART ET INDUSTRIE","adresse":"105, AVENUE JEAN-BAPTISTE LEBAS","commune":"ROUBAIX","type":"AVEC TPE","latitude":50.693768,"longitude":3.167666,"geo":[50.693768,3.167666]},{"id":226,"nom":"CHARLES DE GAULLE","adresse":"72, RUE DE LILLE","commune":"ROUBAIX","type":"AVEC TPE","latitude":50.68645,"longitude":3.170006,"geo":[50.68645,3.170006]},{"id":227,"nom":"BVRD ARMENTIERES","adresse":"1, BOULEVARD D'ARMENTI\u00c8RES","commune":"ROUBAIX","type":"SANS TPE","latitude":50.699436,"longitude":3.159658,"geo":[50.699436,3.159658]},{"id":237,"nom":"RUE DES ANGES","adresse":"FACE AU 42 RUE DES ANGES","commune":"TOURCOING","type":"AVEC TPE","latitude":50.719803,"longitude":3.156338,"geo":[50.719803,3.156338]},{"id":260,"nom":"PLACE ROUSSEL","adresse":"45, PLACE CHARLES ET ALBERT ROUSSEL","commune":"TOURCOING","type":"AVEC TPE","latitude":50.721308,"longitude":3.158104,"geo":[50.721308,3.158104]},{"id":305,"nom":"LA MAILLERIE","adresse":"rue Jean Jaures","commune":"VILLENEUVE D'ASCQ","type":"AVEC TPE","latitude":50.67057,"longitude":3.1443,"geo":[50.67057,3.1443]},{"id":309,"nom":"HAUBOURDIN MAIRIE","adresse":"86 rue Sadi Carnot","commune":"HAUBOURDIN","type":"AVEC TPE","latitude":50.610949,"longitude":2.983948,"geo":[50.610949,2.983948]},{"id":310,"nom":"MARQUETTE MAIRIE","adresse":"Angle rue des Martyrs de la r\u00e9sistance et la rue de Wam","commune":"MARQUETTE","type":"AVEC TPE","latitude":50.676607,"longitude":3.065308,"geo":[50.676607,3.065308]},{"id":128,"nom":"RUE LOUISE MICHEL","adresse":"93 RUE LOUISE MICHEL","commune":"VILLENEUVE D'ASCQ","type":"AVEC TPE","latitude":50.633842,"longitude":3.127335,"geo":[50.633842,3.127335]},{"id":134,"nom":"RUE DES VICTOIRES","adresse":"76, BOULEVARD VAN GOGH","commune":"VILLENEUVE D'ASCQ","type":"AVEC TPE","latitude":50.6221,"longitude":3.131706,"geo":[50.6221,3.131706]},{"id":218,"nom":"PLACE SPRIET","adresse":"PLACE CHARLES SPRIET","commune":"ROUBAIX","type":"AVEC TPE","latitude":50.67392,"longitude":3.18514,"geo":[50.67392,3.18514]},{"id":222,"nom":"LES GOBELINS","adresse":"32, RUE DE LA COMMUNAUT\u00c9 URBAINE","commune":"ROUBAIX","type":"AVEC TPE","latitude":50.6941,"longitude":3.172165,"geo":[50.6941,3.172165]},{"id":264,"nom":"REPUBLIQUE","adresse":"203 RUE CARNOT","commune":"WATTRELOS","type":"AVEC TPE","latitude":50.697895,"longitude":3.206297,"geo":[50.697895,3.206297]},{"id":59,"nom":"BELFORT","adresse":"84 RUE DE TREVISE","commune":"LILLE","type":"AVEC TPE","latitude":50.622223,"longitude":3.077127,"geo":[50.622223,3.077127]},{"id":300,"nom":"ROUSSEAU","adresse":"angle Rousseau \/Delecaux","commune":"LAMBERSART","type":"AVEC TPE","latitude":50.64466,"longitude":3.03027,"geo":[50.64466,3.03027]},{"id":276,"nom":"GEORGES HANNART","adresse":"141 Rue de la Gare","commune":"CROIX","type":"AVEC TPE","latitude":50.67756,"longitude":3.14019,"geo":[50.67756,3.14019]},{"id":8,"nom":"PLACE RICHEBE","adresse":"3 PLACE RICHEBE","commune":"LILLE","type":"AVEC TPE","latitude":50.632366,"longitude":3.062313,"geo":[50.632366,3.062313]},{"id":10,"nom":"RIHOUR","adresse":"ANGLE PLACE RIHOUR","commune":"LILLE","type":"AVEC TPE","latitude":50.63589,"longitude":3.062471,"geo":[50.63589,3.062471]},{"id":64,"nom":"MAIRIE DE LILLE","adresse":"17 RUE SAINT SAUVEUR","commune":"LILLE","type":"AVEC TPE","latitude":50.6318,"longitude":3.071392,"geo":[50.6318,3.071392]},{"id":21,"nom":"PLACE DU CONCERT","adresse":"RUE ALPHONSE COLAS","commune":"LILLE","type":"AVEC TPE","latitude":50.64193,"longitude":3.061774,"geo":[50.64193,3.061774]},{"id":28,"nom":"PALAIS RAMEAU","adresse":"17 RUE SOLFERINO","commune":"LILLE","type":"AVEC TPE","latitude":50.634686,"longitude":3.048344,"geo":[50.634686,3.048344]},{"id":62,"nom":"ZENITH","adresse":"BOULEVARD EMILE DUBUISSON","commune":"LILLE","type":"AVEC TPE","latitude":50.632965,"longitude":3.076437,"geo":[50.632965,3.076437]},{"id":77,"nom":"MONT DE TERRE","adresse":"7 RUE MATTEOTI","commune":"LILLE","type":"AVEC TPE","latitude":50.62286,"longitude":3.0914,"geo":[50.62286,3.0914]},{"id":94,"nom":"MARX DORMOY","adresse":"RUE DE BORDEAUX","commune":"LILLE","type":"AVEC TPE","latitude":50.63579,"longitude":3.033977,"geo":[50.63579,3.033977]},{"id":108,"nom":"GENERAL DE GAULLE","adresse":"108 RUE DU GENERAL DE GAULLE","commune":"MONS EN BAROEUL","type":"AVEC TPE","latitude":50.645267,"longitude":3.100516,"geo":[50.645267,3.100516]},{"id":114,"nom":"BOIS HABITE","adresse":"BOULEVARD DU PR\u00c9SIDENT HOOVER","commune":"LILLE","type":"AVEC TPE","latitude":50.62651,"longitude":3.079211,"geo":[50.62651,3.079211]},{"id":120,"nom":"LOMME MAIRIE","adresse":"H\u00d4TEL DE VILLE","commune":"LOMME","type":"AVEC TPE","latitude":50.63899,"longitude":3.01154,"geo":[50.63899,3.01154]},{"id":121,"nom":"PONT SUPERIEUR","adresse":"ANGLE DE LA RUE AUGUSTE BONTE","commune":"LOMME","type":"AVEC TPE","latitude":50.644855,"longitude":3.013238,"geo":[50.644855,3.013238]},{"id":146,"nom":"SOLFERINO NATIONALE","adresse":"FACE 171 RUE NATIONALE","commune":"LILLE","type":"AVEC TPE","latitude":50.63268,"longitude":3.052483,"geo":[50.63268,3.052483]},{"id":161,"nom":"CHAUDE RIVI\u00c8RE","adresse":"Rue Chaude Rivi\u00e8re","commune":"LILLE","type":"AVEC TPE","latitude":50.634417,"longitude":3.0822274,"geo":[50.634417,3.0822274]},{"id":164,"nom":"HOPITAL MILITAIRE","adresse":"2 RUE PIERRE DUPONT","commune":"LILLE","type":"AVEC TPE","latitude":50.63393,"longitude":3.061687,"geo":[50.63393,3.061687]},{"id":175,"nom":"RECHERCHE","adresse":"977 RUE EUGENE AVINEE","commune":"LOOS","type":"AVEC TPE","latitude":50.60301,"longitude":3.038779,"geo":[50.60301,3.038779]},{"id":176,"nom":"FACULT\u00c9 DE M\u00c9DECINE","adresse":"Avenue Eug\u00e8ne Avin\u00e9e","commune":"LOOS","type":"AVEC TPE","latitude":50.604525,"longitude":3.031224,"geo":[50.604525,3.031224]},{"id":190,"nom":"QUAI 22","adresse":"149 rue Sadi Carnot","commune":"SAINT ANDRE LEZ LILLE","type":"AVEC TPE","latitude":50.662941,"longitude":3.057167,"geo":[50.662941,3.057167]},{"id":192,"nom":"LE STADIUM","adresse":"AVENUE DE LA CHATELLENIE","commune":"VILLENEUVE D'ASCQ","type":"SANS TPE","latitude":50.6312847,"longitude":3.1350379,"geo":[50.6312847,3.1350379]},{"id":221,"nom":"ROUBAIX MAIRIE","adresse":"FACE AU 1, CONTOUR  SAINT MARTIN","commune":"ROUBAIX","type":"AVEC TPE","latitude":50.69184,"longitude":3.173925,"geo":[50.69184,3.173925]},{"id":230,"nom":"DE LA VIGNE","adresse":"181, BOULEVARD DE STRASBOURG","commune":"ROUBAIX","type":"AVEC TPE","latitude":50.70076,"longitude":3.18407,"geo":[50.70076,3.18407]},{"id":256,"nom":"PONT DE NEUVILLE","adresse":"301, RUE DU PONT DE NEUVILLE","commune":"TOURCOING","type":"AVEC TPE","latitude":50.73682,"longitude":3.1712308,"geo":[50.73682,3.1712308]},{"id":129,"nom":"FLERS CHATEAU","adresse":"RUE DE LA CHEVALERIE","commune":"VILLENEUVE D'ASCQ","type":"AVEC TPE","latitude":50.63608,"longitude":3.130853,"geo":[50.63608,3.130853]},{"id":143,"nom":"ROND POINT DE TOURNAI","adresse":"55, RUE DES FUSILL\u00c9S","commune":"VILLENEUVE D'ASCQ","type":"AVEC TPE","latitude":50.61776,"longitude":3.146026,"geo":[50.61776,3.146026]},{"id":228,"nom":"PELLART","adresse":"15, RUE PELLART","commune":"ROUBAIX","type":"AVEC TPE","latitude":50.69535,"longitude":3.180779,"geo":[50.69535,3.180779]},{"id":263,"nom":"STALINGRAD","adresse":"38-4 RUE DE STALINGRAD","commune":"WATTRELOS","type":"AVEC TPE","latitude":50.69626,"longitude":3.209156,"geo":[50.69626,3.209156]},{"id":89,"nom":"BOULEVARD DE METZ","adresse":"40 BOULEVARD DE METZ","commune":"LILLE","type":"AVEC TPE","latitude":50.619312,"longitude":3.041299,"geo":[50.619312,3.041299]},{"id":299,"nom":"TEST CYKLEO LILLE","adresse":"4 rue du Professeur Langevin","commune":"LILLE","type":"SANS TPE","latitude":50.6151322,"longitude":3.0863797,"geo":[50.6151322,3.0863797]},{"id":312,"nom":"SAINT ROCH","adresse":"Rue Saint Roch","commune":"MARQUETTE","type":"AVEC TPE","latitude":50.672499,"longitude":3.069317,"geo":[50.672499,3.069317]},{"id":12,"nom":"OPERA","adresse":"FACE AU 8 RUE ANATOLE FRANCE","commune":"LILLE","type":"AVEC TPE","latitude":50.637486,"longitude":3.065902,"geo":[50.637486,3.065902]},{"id":36,"nom":"CORMONTAIGNE","adresse":"16 - 36 PLACE CORMONTAIGNE","commune":"LILLE","type":"AVEC TPE","latitude":50.62624,"longitude":3.039911,"geo":[50.62624,3.039911]},{"id":43,"nom":"THEATRE SEBASTOPOL","adresse":"3 PLACE SEBASTOPOL","commune":"LILLE","type":"AVEC TPE","latitude":50.629044,"longitude":3.058288,"geo":[50.629044,3.058288]},{"id":3,"nom":"JARDIN VAUBAN","adresse":"39 BOULEVARD VAUBAN","commune":"LILLE","type":"AVEC TPE","latitude":50.636093,"longitude":3.050447,"geo":[50.636093,3.050447]},{"id":20,"nom":"N.D. DE LA TREILLE","adresse":"PLACE GILLSON","commune":"LILLE","type":"AVEC TPE","latitude":50.640385,"longitude":3.062053,"geo":[50.640385,3.062053]},{"id":29,"nom":"ST SEBASTIEN","adresse":"40 RUE SAINT SEBASTIEN","commune":"LILLE","type":"AVEC TPE","latitude":50.647236,"longitude":3.059376,"geo":[50.647236,3.059376]},{"id":31,"nom":"PONT NEUF","adresse":"38 BIS RUE DU PONT NEUF","commune":"LILLE","type":"AVEC TPE","latitude":50.644264,"longitude":3.062935,"geo":[50.644264,3.062935]},{"id":48,"nom":"PORTE DE DOUAI","adresse":"PLACE FERNIG","commune":"LILLE","type":"AVEC TPE","latitude":50.61843,"longitude":3.07241,"geo":[50.61843,3.07241]},{"id":58,"nom":"PORTE DE VALENCIENNES","adresse":"BOULEVARD DE BELFORT","commune":"LILLE","type":"AVEC TPE","latitude":50.62073,"longitude":3.07895,"geo":[50.62073,3.07895]},{"id":61,"nom":"LILLE GRAND PALAIS","adresse":"30 BOULEVARD DU MARECHAL VAILLANT","commune":"LILLE","type":"AVEC TPE","latitude":50.629246,"longitude":3.075218,"geo":[50.629246,3.075218]},{"id":75,"nom":"EUGENE JACQUET","adresse":"59 RUE EUGENE JACQUET","commune":"LILLE","type":"AVEC TPE","latitude":50.637337,"longitude":3.084894,"geo":[50.637337,3.084894]},{"id":88,"nom":"RUE NATIONALE","adresse":"91 RUE NATIONALE","commune":"LILLE","type":"AVEC TPE","latitude":50.635082,"longitude":3.058015,"geo":[50.635082,3.058015]},{"id":99,"nom":"LA MADELEINE MAIRIE","adresse":"RUE DU GENERAL DE GAULLE","commune":"LA MADELEINE","type":"AVEC TPE","latitude":50.654602,"longitude":3.073805,"geo":[50.654602,3.073805]},{"id":101,"nom":"MONS SARTS","adresse":"AVENUE DES ACACIAS","commune":"MONS EN BAROEUL","type":"AVEC TPE","latitude":50.6423,"longitude":3.099291,"geo":[50.6423,3.099291]},{"id":115,"nom":"DE GAULLE","adresse":"85, RUE DU G\u00c9N\u00c9RAL DE GAULLE","commune":"LA MADELEINE","type":"AVEC TPE","latitude":50.651497,"longitude":3.072316,"geo":[50.651497,3.072316]},{"id":117,"nom":"HIPPODROME","adresse":"9, AVENUE HENRI GRUSON","commune":"LAMBERSART","type":"AVEC TPE","latitude":50.641617,"longitude":3.031375,"geo":[50.641617,3.031375]},{"id":123,"nom":"RUE DE L'EGLISE","adresse":"71, RUE NATIONALE","commune":"MARCQ EN BAROEUL","type":"AVEC TPE","latitude":50.665348,"longitude":3.075792,"geo":[50.665348,3.075792]},{"id":162,"nom":"ANGELLIER","adresse":"3 RUE AUGUSTE ANGELLIER","commune":"LILLE","type":"AVEC TPE","latitude":50.628544,"longitude":3.065015,"geo":[50.628544,3.065015]},{"id":163,"nom":"JEANNE D'ARC","adresse":"31b Rue Jeanne d\u2019Arc (Lille)","commune":"LILLE","type":"AVEC TPE","latitude":50.625597,"longitude":3.064497,"geo":[50.625597,3.064497]},{"id":169,"nom":"JEMMAPES","adresse":"59 RUE JEMMAPES","commune":"LILLE","type":"AVEC TPE","latitude":50.644685,"longitude":3.057953,"geo":[50.644685,3.057953]},{"id":170,"nom":"GANTOIS","adresse":"104-122 Bld VICTOR HUGO","commune":"LILLE","type":"AVEC TPE","latitude":50.62195,"longitude":3.06038,"geo":[50.62195,3.06038]},{"id":180,"nom":"SQUARE JEAN MONNET","adresse":"19 ALLEE DU Dr HAVET","commune":"LAMBERSART","type":"AVEC TPE","latitude":50.652107,"longitude":3.029324,"geo":[50.652107,3.029324]},{"id":213,"nom":"LANNOY","adresse":"93, RUE DE LANNOY","commune":"ROUBAIX","type":"SANS TPE","latitude":50.68859,"longitude":3.182028,"geo":[50.68859,3.182028]},{"id":241,"nom":"LE CORBUSIER","adresse":"RUE DES PIATS","commune":"TOURCOING","type":"AVEC TPE","latitude":50.722343,"longitude":3.170847,"geo":[50.722343,3.170847]},{"id":244,"nom":"F ROOSEVELT","adresse":"2-14 BOULEVARD DE L'\u00c9GALIT\u00c9","commune":"TOURCOING","type":"AVEC TPE","latitude":50.727453,"longitude":3.166828,"geo":[50.727453,3.166828]},{"id":246,"nom":"CAVELL","adresse":"FACE AU 49 RUE DE LA CLOCHE","commune":"TOURCOING","type":"AVEC TPE","latitude":50.72271,"longitude":3.163794,"geo":[50.72271,3.163794]},{"id":255,"nom":"RUE DE ROUBAIX","adresse":"SECTEUR UNION","commune":"TOURCOING","type":"SANS TPE","latitude":50.7134,"longitude":3.165011,"geo":[50.7134,3.165011]},{"id":261,"nom":"PHALEMPINS","adresse":"PHALEMPINS","commune":"TOURCOING","type":"AVEC TPE","latitude":50.732277,"longitude":3.157656,"geo":[50.732277,3.157656]},{"id":311,"nom":"GRANDS MOULINS DE PARIS","adresse":"Avenue Decauville","commune":"MARQUETTE-LEZ-LILLE","type":"AVEC TPE","latitude":50.671409,"longitude":3.055056,"geo":[50.671409,3.055056]},{"id":1,"nom":"METROPOLE EUROPEENNE DE LILLE","adresse":"MEL RUE DU BALLON","commune":"LILLE","type":"AVEC TPE","latitude":50.641926,"longitude":3.075992,"geo":[50.641926,3.075992]},{"id":109,"nom":"SQUARE DU PORTUGAL","adresse":"FACE AU 204 RUE DE LA BASSEE","commune":"LILLE","type":"AVEC TPE","latitude":50.623466,"longitude":3.030667,"geo":[50.623466,3.030667]},{"id":145,"nom":"RESIDENCE","adresse":"PLACE N. DAME DE LA NATIVIT\u00c9","commune":"VILLENEUVE D'ASCQ","type":"AVEC TPE","latitude":50.61992,"longitude":3.14528,"geo":[50.61992,3.14528]},{"id":235,"nom":"BLANCHEMAILLE","adresse":"AVENUE DES NATIONS UNIES","commune":"ROUBAIX","type":"SANS TPE","latitude":50.696327,"longitude":3.16713,"geo":[50.696327,3.16713]},{"id":301,"nom":"SAINT CALIXTE","adresse":"Rue du Bourg","commune":"LAMBERSART","type":"AVEC TPE","latitude":50.65281,"longitude":3.02604,"geo":[50.65281,3.02604]},{"id":267,"nom":"FER \u00c0 CHEVAL","adresse":"Rue  Edouard Vaillant","commune":"ROUBAIX","type":"AVEC TPE","latitude":50.670155,"longitude":3.154898,"geo":[50.670155,3.154898]},{"id":5,"nom":"MASSENA","adresse":"73 RUE MASSENA","commune":"LILLE","type":"AVEC TPE","latitude":50.63156,"longitude":3.054738,"geo":[50.63156,3.054738]},{"id":14,"nom":"CHAMP DE MARS","adresse":"AVENUE LEON JOUHAUX","commune":"LILLE","type":"AVEC TPE","latitude":50.6379088,"longitude":3.0508558,"geo":[50.6379088,3.0508558]},{"id":18,"nom":"VOLTAIRE","adresse":"93 RUE ROYALE","commune":"LILLE","type":"AVEC TPE","latitude":50.6428,"longitude":3.055932,"geo":[50.6428,3.055932]},{"id":26,"nom":"MOLINEL","adresse":"58 RUE DU MOLINEL","commune":"LILLE","type":"AVEC TPE","latitude":50.63457,"longitude":3.068007,"geo":[50.63457,3.068007]},{"id":27,"nom":"TANNEURS","adresse":"2 - 10 RUE DES TANNEURS","commune":"LILLE","type":"AVEC TPE","latitude":50.635014,"longitude":3.064802,"geo":[50.635014,3.064802]},{"id":34,"nom":"PLACE CATINAT","adresse":"199 RUE COLBERT","commune":"LILLE","type":"AVEC TPE","latitude":50.63413,"longitude":3.041209,"geo":[50.63413,3.041209]},{"id":38,"nom":"PLACE CASQUETTE","adresse":"1 RUE D'HAUBOURDIN","commune":"LILLE","type":"AVEC TPE","latitude":50.62429,"longitude":3.045321,"geo":[50.62429,3.045321]},{"id":54,"nom":"METRO WAZEMMES","adresse":"93 RUE RACINE","commune":"LILLE","type":"AVEC TPE","latitude":50.62338,"longitude":3.051565,"geo":[50.62338,3.051565]},{"id":60,"nom":"TREVISE","adresse":"114 RUE DE DOUAI","commune":"LILLE","type":"AVEC TPE","latitude":50.621185,"longitude":3.072363,"geo":[50.621185,3.072363]},{"id":65,"nom":"PLACE TACQ","adresse":"70 RUE DE LOOS","commune":"LILLE","type":"AVEC TPE","latitude":50.621128,"longitude":3.035483,"geo":[50.621128,3.035483]},{"id":80,"nom":"PETIT MAROC","adresse":"RUE DU PROFESSEUR LANGEVIN","commune":"LILLE","type":"AVEC TPE","latitude":50.61989,"longitude":3.084357,"geo":[50.61989,3.084357]},{"id":95,"nom":"MARBRERIE","adresse":"280 BIS RUE PIERRE LEGRAND","commune":"LILLE HELLEMMES","type":"AVEC TPE","latitude":50.63041,"longitude":3.097037,"geo":[50.63041,3.097037]},{"id":98,"nom":"PLACE DU MARCHE","adresse":"ANGLE DE LA RUE GAMBETTA","commune":"LA MADELEINE","type":"AVEC TPE","latitude":50.6549,"longitude":3.068756,"geo":[50.6549,3.068756]},{"id":104,"nom":"MENDES FRANCE","adresse":"BD NAPOLEON 1ER","commune":"MONS EN BAROEUL","type":"AVEC TPE","latitude":50.64584,"longitude":3.112744,"geo":[50.64584,3.112744]},{"id":107,"nom":"LAVOISIER","adresse":"5 RUE LAURENT DE LAVOISIER","commune":"MONS EN BAROEUL","type":"AVEC TPE","latitude":50.636105,"longitude":3.106438,"geo":[50.636105,3.106438]},{"id":111,"nom":"HELLEMMES CIMETIERE","adresse":"318, RUE ROGER SALENGRO","commune":"HELLEMMES","type":"AVEC TPE","latitude":50.62486,"longitude":3.116677,"geo":[50.62486,3.116677]},{"id":116,"nom":"BOTANIQUE","adresse":"185, AVENUE DE LA R\u00c9PUBLIQUE","commune":"LA MADELEINE","type":"AVEC TPE","latitude":50.64891,"longitude":3.078336,"geo":[50.64891,3.078336]},{"id":124,"nom":"CLEMENCEAU HIPPODROME","adresse":"916-920 AV DE LA R\u00c9PUBLIQUE","commune":"MARCQ EN BAROEUL","type":"AVEC TPE","latitude":50.6618,"longitude":3.096235,"geo":[50.6618,3.096235]},{"id":133,"nom":"BOULEVARD DE VALMY","adresse":"FACE AU 233 BOULEVARD DE VALMY","commune":"VILLENEUVE D'ASCQ","type":"AVEC TPE","latitude":50.61915,"longitude":3.126501,"geo":[50.61915,3.126501]},{"id":138,"nom":"LADRIERE","adresse":"FACE AU 53 RUE DE FIVES","commune":"VILLENEUVE D'ASCQ","type":"AVEC TPE","latitude":50.631298,"longitude":3.126914,"geo":[50.631298,3.126914]},{"id":142,"nom":"TREMIERE","adresse":"RUE TR\u00c9MI\u00c8RES ANGLE RUE DES FUSILL\u00c9S","commune":"VILLENEUVE D'ASCQ","type":"AVEC TPE","latitude":50.6206,"longitude":3.138207,"geo":[50.6206,3.138207]},{"id":167,"nom":"TRANQUILLIT\u00c9","adresse":"Rue L\u00e9on Gambetta","commune":"LILLE","type":"AVEC TPE","latitude":50.626382,"longitude":3.047066,"geo":[50.626382,3.047066]},{"id":173,"nom":"CHU - CENTRE OSCAR LAMBRET","adresse":"AVENUE OSCAR LAMBRET","commune":"LILLE","type":"AVEC TPE","latitude":50.61352,"longitude":3.03677,"geo":[50.61352,3.03677]},{"id":182,"nom":"BECQUART","adresse":"82 Avenue Becquart","commune":"LAMBERSART","type":"AVEC TPE","latitude":50.649644,"longitude":3.03812,"geo":[50.649644,3.03812]},{"id":184,"nom":"RUE DU PARC","adresse":"18 BIS RUE DU PARC","commune":"LA MADELEINE","type":"AVEC TPE","latitude":50.651107,"longitude":3.0678,"geo":[50.651107,3.0678]},{"id":195,"nom":"TISSERAND","adresse":"51 Rue Victor Hugo (Lomme)","commune":"LILLE","type":"AVEC TPE","latitude":50.631135,"longitude":3.008346,"geo":[50.631135,3.008346]},{"id":204,"nom":"JEAN MOULIN","adresse":"FACE AU 49 BIS BD DU G\u00c9N\u00c9RAL DE GAULLE","commune":"ROUBAIX","type":"SANS TPE","latitude":50.684757,"longitude":3.171974,"geo":[50.684757,3.171974]},{"id":243,"nom":"VICTOIRE","adresse":"FACE AU 1 PLACE DE LA VICTOIRE","commune":"TOURCOING","type":"AVEC TPE","latitude":50.718204,"longitude":3.15749,"geo":[50.718204,3.15749]},{"id":249,"nom":"RUE DE MENIN","adresse":"FACE AU 40 RUE JOURDAN","commune":"TOURCOING","type":"AVEC TPE","latitude":50.728798,"longitude":3.154051,"geo":[50.728798,3.154051]},{"id":259,"nom":"MERCURE","adresse":"BOULEVARD GAMBETTA","commune":"TOURCOING","type":"SANS TPE","latitude":50.704693,"longitude":3.160515,"geo":[50.704693,3.160515]},{"id":304,"nom":"LE SART","adresse":"Avenue de Flandres","commune":"VILLENEUVE D'ASCQ","type":"AVEC TPE","latitude":50.66351,"longitude":3.138682,"geo":[50.66351,3.138682]},{"id":127,"nom":"FLERS MAIRIE","adresse":"16 RUE DU G\u00c9N\u00c9RAL LECLERC","commune":"VILLENEUVE D'ASCQ","type":"AVEC TPE","latitude":50.63708,"longitude":3.127964,"geo":[50.63708,3.127964]},{"id":262,"nom":"WATTRELOS PLACE","adresse":"2-10, D660","commune":"WATTRELOS","type":"AVEC TPE","latitude":50.701187,"longitude":3.215011,"geo":[50.701187,3.215011]},{"id":273,"nom":"PISCINE DES 3 VILLES","adresse":"Rue Claude Bernard","commune":"HEM","type":"AVEC TPE","latitude":50.670865,"longitude":3.198875,"geo":[50.670865,3.198875]},{"id":272,"nom":"CHARLES FOURIER","adresse":"261 avenue Gustave Delory","commune":"ROUBAIX","type":"AVEC TPE","latitude":50.671517,"longitude":3.183123,"geo":[50.671517,3.183123]},{"id":7,"nom":"PLACE DE STRASBOURG","adresse":"7 PLACE DE STRASBOURG","commune":"LILLE","type":"AVEC TPE","latitude":50.633728,"longitude":3.055307,"geo":[50.633728,3.055307]},{"id":39,"nom":"MARCHE DE WAZEMMES","adresse":"298 RUE LEON GAMBETTA","commune":"LILLE","type":"AVEC TPE","latitude":50.627674,"longitude":3.050173,"geo":[50.627674,3.050173]},{"id":69,"nom":"CHASSEURS DE DRIANT","adresse":"11 AVENUE VERHAEREN","commune":"LILLE","type":"AVEC TPE","latitude":50.61893,"longitude":3.032539,"geo":[50.61893,3.032539]},{"id":132,"nom":"CENTRE COMMERCIAL V2","adresse":"BOULEVARD VALMY","commune":"VILLENEUVE D'ASCQ","type":"AVEC TPE","latitude":50.61606,"longitude":3.132006,"geo":[50.61606,3.132006]},{"id":137,"nom":"HERON PARC","adresse":"40, RUE DE LA VAGUE","commune":"VILLENEUVE D'ASCQ","type":"AVEC TPE","latitude":50.615868,"longitude":3.126089,"geo":[50.615868,3.126089]},{"id":141,"nom":"METRO TRIOLO","adresse":"2 RUE TRAVERSI\u00c8RE ANGLE ALL\u00c9E TURGOT","commune":"VILLENEUVE D'ASCQ","type":"AVEC TPE","latitude":50.61682,"longitude":3.140808,"geo":[50.61682,3.140808]},{"id":155,"nom":"BAILLY","adresse":"FACE AU 4 RUE GAMBETTA","commune":"SAINT ANDRE LEZ LILLE","type":"AVEC TPE","latitude":50.655098,"longitude":3.051201,"geo":[50.655098,3.051201]},{"id":157,"nom":"CANON D'OR","adresse":"FACE AU 255 RUE DE LILLE","commune":"LAMBERSART","type":"AVEC TPE","latitude":50.64989,"longitude":3.042045,"geo":[50.64989,3.042045]},{"id":158,"nom":"DELECAUT","adresse":"FACE AU 102 AVENUE HENRI DELECAUX","commune":"LAMBERSART","type":"AVEC TPE","latitude":50.644943,"longitude":3.036932,"geo":[50.644943,3.036932]},{"id":168,"nom":"RIVES DE LA HAUTE DEULE","adresse":"280-248 RUE DU PONT \u00e0 FOURCHON","commune":"LILLE","type":"AVEC TPE","latitude":50.630855,"longitude":3.0226,"geo":[50.630855,3.0226]},{"id":174,"nom":"CHU - EURASANT\u00c9","adresse":"BOULEVARD EUGENE DUTHOIT","commune":"LILLE","type":"AVEC TPE","latitude":50.607664,"longitude":3.038892,"geo":[50.607664,3.038892]},{"id":177,"nom":"RUE DE LONDRES","adresse":"2 Rue du Mar\u00e9chal Foch","commune":"LOOS","type":"AVEC TPE","latitude":50.616763,"longitude":3.023032,"geo":[50.616763,3.023032]},{"id":194,"nom":"LOMMELET","adresse":"181 rue du G\u00e9n\u00e9ral Leclerc","commune":"SAINT ANDRE LEZ LILLE","type":"AVEC TPE","latitude":50.665968,"longitude":3.049462,"geo":[50.665968,3.049462]},{"id":205,"nom":"CONDITION PUBLIQUE","adresse":"45, RUE LOUIS DUPIRE","commune":"ROUBAIX","type":"AVEC TPE","latitude":50.69106,"longitude":3.1902585,"geo":[50.69106,3.1902585]},{"id":219,"nom":"GARE JEAN LEBAS","adresse":"PLACE DE LA GARE","commune":"ROUBAIX","type":"AVEC TPE","latitude":50.695477,"longitude":3.164222,"geo":[50.695477,3.164222]},{"id":229,"nom":"NATIONS UNIES","adresse":"158, BOULEVARD GAMBETTA","commune":"ROUBAIX","type":"SANS TPE","latitude":50.692368,"longitude":3.185092,"geo":[50.692368,3.185092]},{"id":232,"nom":"FOSSE AUX CHENES","adresse":"13, PLACE DE LA FOSSE AUX CH\u00caNES","commune":"ROUBAIX","type":"AVEC TPE","latitude":50.699734,"longitude":3.174347,"geo":[50.699734,3.174347]},{"id":236,"nom":"CHAPTAL","adresse":"3, RUE D'AVELGHEM","commune":"ROUBAIX","type":"SANS TPE","latitude":50.694714,"longitude":3.192643,"geo":[50.694714,3.192643]},{"id":247,"nom":"ROUGET DE L ISLE","adresse":"SECTEUR BVRD DE L'EGALIT\u00c9","commune":"TOURCOING","type":"AVEC TPE","latitude":50.73418,"longitude":3.1681724,"geo":[50.73418,3.1681724]},{"id":251,"nom":"COLBERT","adresse":"RUE DE GAND (FACE AU LYC\u00c9E)","commune":"TOURCOING","type":"AVEC TPE","latitude":50.72551,"longitude":3.156554,"geo":[50.72551,3.156554]},{"id":252,"nom":"RUE DES POUTRAINS","adresse":"RUE DE LILLE","commune":"TOURCOING","type":"AVEC TPE","latitude":50.72263,"longitude":3.150377,"geo":[50.72263,3.150377]},{"id":105,"nom":"VERDUN","adresse":"69 AVENUE DE VERDUN","commune":"MONS EN BAROEUL","type":"AVEC TPE","latitude":50.638126,"longitude":3.10231,"geo":[50.638126,3.10231]},{"id":118,"nom":"COLLEGE LAVOISIER","adresse":"56, RUE PAUL VAILLANT","commune":"LAMBERSART","type":"AVEC TPE","latitude":50.641834,"longitude":3.022364,"geo":[50.641834,3.022364]},{"id":140,"nom":"RUE CORNEILLE","adresse":"RUE CORNEILLE","commune":"VILLENEUVE D'ASCQ","type":"SANS TPE","latitude":50.623795,"longitude":3.144815,"geo":[50.623795,3.144815]},{"id":16,"nom":"MAGASIN","adresse":"3 RUE SAINT ANDRE","commune":"LILLE","type":"AVEC TPE","latitude":50.646225,"longitude":3.053499,"geo":[50.646225,3.053499]},{"id":17,"nom":"HALLE AUX SUCRES","adresse":"33 AVENUE DU PEUPLE BELGE","commune":"LILLE","type":"AVEC TPE","latitude":50.644695,"longitude":3.060867,"geo":[50.644695,3.060867]},{"id":23,"nom":"RUE DES ARTS","adresse":"41 RUE DES ARTS","commune":"LILLE","type":"AVEC TPE","latitude":50.639107,"longitude":3.065548,"geo":[50.639107,3.065548]},{"id":33,"nom":"PORT DE LILLE","adresse":"18 RUE DE TURENNE","commune":"LILLE","type":"AVEC TPE","latitude":50.63022,"longitude":3.035681,"geo":[50.63022,3.035681]},{"id":42,"nom":"PLACE PHILIPPE LEBON","adresse":"15 PLACE PHILLIPPE LEBON","commune":"LILLE","type":"AVEC TPE","latitude":50.62789,"longitude":3.06209,"geo":[50.62789,3.06209]},{"id":52,"nom":"PLACE COLETTE BESSON","adresse":"FACE AU 37 RUE DE WAZEMMES","commune":"LILLE","type":"AVEC TPE","latitude":50.62276,"longitude":3.063799,"geo":[50.62276,3.063799]},{"id":71,"nom":"BOIS BLANCS","adresse":"122 AVENUE DE DUNKERQUE","commune":"LILLE","type":"AVEC TPE","latitude":50.634045,"longitude":3.030778,"geo":[50.634045,3.030778]},{"id":82,"nom":"GARE LILLE EUROPE","adresse":"299 BOULEVARD DE LEEDS","commune":"LILLE","type":"AVEC TPE","latitude":50.63999,"longitude":3.075204,"geo":[50.63999,3.075204]},{"id":151,"nom":"CH. DES MARGUERITOIS","adresse":"FACE AU 152 CHEMIN MARGUERITOIS","commune":"RONCHIN","type":"AVEC TPE","latitude":50.60642,"longitude":3.072209,"geo":[50.60642,3.072209]},{"id":152,"nom":"CHEMIN ROUGE","adresse":"FACE AU 2 CHEMIN ROUGE","commune":"FACHES-THUMESNIL","type":"AVEC TPE","latitude":50.610582,"longitude":3.065103,"geo":[50.610582,3.065103]},{"id":166,"nom":"CAMPUS ST RAPHAEL","adresse":"100 BOULEVARD VAUBAN","commune":"LILLE","type":"AVEC TPE","latitude":50.63084,"longitude":3.04483,"geo":[50.63084,3.04483]},{"id":171,"nom":"AUBERGE DE JEUNESSE","adresse":"235 Bld PAUL PAINLEVE","commune":"LILLE","type":"AVEC TPE","latitude":50.62479,"longitude":3.080467,"geo":[50.62479,3.080467]},{"id":191,"nom":"FERME D'EN HAUT","adresse":"RUE JULES GUESDE","commune":"VILLENEUVE D'ASCQ","type":"AVEC TPE","latitude":50.638838,"longitude":3.1317727,"geo":[50.638838,3.1317727]},{"id":201,"nom":"EDHEC","adresse":"272, RUE VERTE","commune":"CROIX","type":"AVEC TPE","latitude":50.673943,"longitude":3.163443,"geo":[50.673943,3.163443]},{"id":203,"nom":"VICTOR PROVO","adresse":"BOULEVARD DU G\u00c9N\u00c9RAL DE GAULLE","commune":"ROUBAIX","type":"AVEC TPE","latitude":50.68079,"longitude":3.167454,"geo":[50.68079,3.167454]},{"id":216,"nom":"FRATERNITE","adresse":"PLACE DE LA FRATERNIT\u00c9","commune":"ROUBAIX","type":"AVEC TPE","latitude":50.681797,"longitude":3.194122,"geo":[50.681797,3.194122]},{"id":234,"nom":"ALSACE","adresse":"89, BOULEVARD D'ARMENTI\u00c8RES","commune":"ROUBAIX","type":"AVEC TPE","latitude":50.7004,"longitude":3.161378,"geo":[50.7004,3.161378]},{"id":240,"nom":"POSTE","adresse":"22, RUE L\u00c9ON SALEMBIER","commune":"TOURCOING","type":"AVEC TPE","latitude":50.71922,"longitude":3.163396,"geo":[50.71922,3.163396]},{"id":250,"nom":"TOURCOING MAIRIE","adresse":"6 BIS, RUE NATIONALE","commune":"TOURCOING","type":"AVEC TPE","latitude":50.72389,"longitude":3.160344,"geo":[50.72389,3.160344]},{"id":258,"nom":"CARLIERS","adresse":"135, CHAUSS\u00c9E GALIL\u00c9E","commune":"TOURCOING","type":"AVEC TPE","latitude":50.710735,"longitude":3.159881,"geo":[50.710735,3.159881]},{"id":306,"nom":"CHATELLENIE","adresse":"Angle Chatellenie \/ all\u00e9e chanteclerc","commune":"VILLENEUVE D'ASCQ","type":"AVEC TPE","latitude":50.63599,"longitude":3.13566,"geo":[50.63599,3.13566]}]